id,name,lat,lon,priority,service_time_minutes,time_window_start,time_window_end
1,医院A,39.9042,116.4074,A,30,9,12
2,诊所B,39.9100,116.4100,B,20,8,17
3,药店C,39.9200,116.4200,A,25,10,16
4,客户D,39.9300,116.4300,C,15,9,17
5,客户E,39.8800,116.3800,B,20,13,17
6,医院F,39.9050,116.4150,A,35,9,12